City_ID,City,Lat,Lng,Max Temp,Humidity,Cloudiness,Wind Speed,Country,Date
0,pangody,65.85,74.4859,19.54,40,100,7.58,RU,1720528808
1,bethel,41.3712,-73.414,26.04,90,0,1.54,US,1720528428
2,kapuskasing,49.4169,-82.4331,16.05,100,100,4.12,CA,1720528560
3,shancheng,34.7953,116.0817,24.05,82,37,1.85,CN,1720528811
4,ashland,40.8167,-82.2665,24.04,97,100,1.45,US,1720528812
5,tolanaro,-25.0319,46.9987,25.04,61,0,4.12,MG,1720528814
6,mbuji-mayi,-6.15,23.6,35.59,13,29,1.99,CD,1720528815
7,port-aux-francais,-49.35,70.2167,4.34,85,3,10.55,TF,1720528256
8,enewetak,11.3474,162.3373,28.79,79,2,7.73,MH,1720528489
9,udachny,66.4167,112.4,23.51,54,72,7.05,RU,1720528410
10,nyurba,63.2842,118.3319,19.7,70,100,2.87,RU,1720528819
11,bredasdorp,-34.5322,20.0403,10.85,82,100,10.63,ZA,1720528463
12,blackmans bay,-43.0167,147.3167,11.07,92,100,3.35,AU,1720528382
13,grytviken,-54.2811,-36.5092,-2.46,68,100,4.76,GS,1720528274
14,charters towers,-20.1,146.2667,17.32,73,55,3.44,AU,1720528824
15,upper hutt,-41.1383,175.0502,6.96,95,50,0.93,NZ,1720528825
16,novyy urgal,51.0736,132.5642,12.67,74,65,1.83,RU,1720528826
17,kirakira,-10.4544,161.9205,26.26,89,100,4.95,SB,1720528827
18,wailua homesteads,22.0669,-159.378,23.44,92,100,5.66,US,1720528700
19,treinta y tres,-33.2333,-54.3833,4.45,76,100,3.85,UY,1720528830
20,kone,-21.0595,164.8658,19.83,87,47,2.31,NC,1720528831
21,namdrik,5.5994,168.1028,28.57,78,77,5.37,MH,1720528832
22,shijiang,27.0819,110.7933,27.62,74,100,1.44,CN,1720528833
23,chonchi,-42.6128,-73.8092,2.56,96,32,1.08,CL,1720528834
24,palangkaraya,-2.2,113.8333,23.4,96,100,1.19,ID,1720528836
25,kapoeta,4.7717,33.5903,30.83,42,100,2.38,SS,1720528837
26,jonuta,18.0833,-92.1333,24.82,94,100,1.44,MX,1720528838
27,salinopolis,-0.6136,-47.3561,27.65,79,7,2.97,BR,1720528839
28,stanley,54.868,-1.6985,13.77,97,75,7.72,GB,1720528684
29,aasiaat,68.7098,-52.8699,2.85,96,100,7.07,GL,1720528423
30,ushuaia,-54.8,-68.3,4.81,60,75,2.57,AR,1720528373
31,waitangi,-43.9535,-176.5597,7.68,61,20,7.09,NZ,1720528404
32,ribeira brava,32.65,-17.0667,25.4,76,0,1.37,PT,1720528845
33,santana,-0.0583,-51.1817,30.1,74,40,1.03,BR,1720528846
34,ust-nera,64.5667,143.2,14.6,51,100,1.01,RU,1720528321
35,malpica,43.3228,-8.8105,20.09,91,100,4.39,ES,1720528848
36,margaret river,-33.95,115.0667,16.46,55,100,9.69,AU,1720528495
37,iqaluit,63.7506,-68.5145,3.85,100,100,5.14,CA,1720528568
38,isafjordur,66.0755,-23.124,12.02,71,100,4.63,IS,1720528253
39,georgetown,5.4112,100.3354,29.96,74,20,2.06,MY,1720528853
40,lompoc,34.6391,-120.4579,13.13,96,100,0.45,US,1720528459
41,cedeira,43.6797,-8.0209,18.87,57,98,6.89,ES,1720528855
42,ar ruways,24.1103,52.7306,36.99,45,0,5.53,AE,1720528856
43,ribeira grande,38.5167,-28.7,25.22,88,75,8.75,PT,1720528630
44,'alaqahdari dishu,30.4374,63.313,43.53,7,0,2.27,AF,1720528858
45,dakoro,14.5106,6.765,36.54,31,10,4.37,NE,1720528860
46,port mathurin,-19.6833,63.4167,22.82,71,14,6.74,MU,1720528565
47,tionk essil,12.7856,-16.5217,30.03,63,82,2.92,SN,1720528494
48,puerto ayora,-0.7393,-90.3518,20.31,99,88,3.13,EC,1720528421
49,port elizabeth,-33.918,25.5701,20.05,31,100,3.13,ZA,1720528637
50,boa vista,2.8197,-60.6733,25.99,83,40,1.03,BR,1720528698
51,adamstown,-25.066,-130.1015,19.8,65,85,7.32,PN,1720528283
52,avarua,-21.2078,-159.775,22.03,60,75,3.6,CK,1720528514
53,dunedin,-45.8742,170.5036,3.78,98,30,1.66,NZ,1720528631
54,papatowai,-46.5619,169.4708,4.77,90,66,2.52,NZ,1720528272
55,tiksi,71.6872,128.8694,12.09,58,28,1.48,RU,1720528433
56,jamestown,42.097,-79.2353,23.77,86,100,0.45,US,1720528372
57,yellowknife,62.456,-114.3525,15.23,90,75,2.57,CA,1720528357
58,praia da vitoria,38.7333,-27.0667,29.14,61,20,6.99,PT,1720528727
59,saipan,15.1355,145.701,29.39,74,40,4.12,MP,1720528491
60,whitehorse,60.7161,-135.0538,14.43,41,40,3.6,CA,1720528206
61,vorgashor,67.5833,63.95,24.16,30,11,0.64,RU,1720528431
62,pisco,-13.7,-76.2167,16.03,88,100,1.54,PE,1720528880
63,palmer,42.1584,-72.3287,26.64,75,20,2.57,US,1720528881
64,hamilton,39.1834,-84.5333,25.43,86,0,0.0,US,1720528264
65,mount gambier,-37.8333,140.7667,6.62,95,0,0.68,AU,1720528195
66,hermanus,-34.4187,19.2345,14.89,81,100,13.36,ZA,1720528338
67,puerto natales,-51.7236,-72.4875,4.25,60,75,2.57,CL,1720528371
68,kerikeri,-35.2268,173.9474,10.51,92,66,0.45,NZ,1720528888
69,lihue,21.9789,-159.3672,23.77,91,100,5.66,US,1720528618
70,port hedland,-20.3167,118.5667,20.03,73,0,0.0,AU,1720528891
71,west island,-12.1568,96.8225,27.99,89,5,2.57,CC,1720528377
72,gadzhiyevo,69.2551,33.3362,9.98,94,100,4.29,RU,1720528723
73,st. john's,47.5649,-52.7093,22.86,73,100,5.14,CA,1720528358
74,dudinka,69.4058,86.1778,20.37,53,25,6.07,RU,1720528583
75,revda,56.801,59.9303,25.34,46,23,3.33,RU,1720528898
76,afaahiti,-17.75,-149.2833,21.93,77,95,3.59,PF,1720528729
77,ilulissat,69.2167,-51.1,5.01,93,100,5.14,GL,1720528649
78,beryslav,46.8415,33.4284,38.32,20,0,6.97,UA,1720528902
79,susuman,62.7833,148.1667,9.06,65,12,1.73,RU,1720528903
80,vilyuysk,63.7553,121.6247,20.06,63,14,2.95,RU,1720528904
81,petropavlovsk-kamchatsky,53.0452,158.6483,10.33,100,100,2.0,RU,1720528219
82,albany,42.6001,-73.9662,24.74,88,100,0.45,US,1720528220
83,ebon,4.582,168.6964,28.65,78,65,5.61,MH,1720528909
84,invercargill,-46.4,168.35,1.68,94,98,1.34,NZ,1720528469
85,tofol,5.3248,163.0078,28.73,77,19,5.45,FM,1720528911
86,bilibino,68.0546,166.4372,7.94,71,77,2.17,RU,1720528263
87,youhao,47.8667,128.8333,17.55,58,100,0.78,CN,1720528913
88,fale old settlement,-9.3852,-171.2468,28.23,76,100,5.32,TK,1720528608
89,semnan,35.5729,53.3971,38.06,11,2,6.34,IR,1720528916
90,college,64.8569,-147.8028,11.18,92,100,2.57,US,1720528475
91,sumbe,-11.2061,13.8437,23.6,67,10,4.37,AO,1720528918
92,sao joao da barra,-21.6403,-41.0511,25.05,74,94,0.42,BR,1720528919
93,port lincoln,-34.7333,135.8667,12.36,86,66,4.36,AU,1720528331
94,thompson,55.7435,-97.8558,16.09,88,100,3.6,CA,1720528569
95,kailua-kona,19.6406,-155.9956,25.98,88,100,0.0,US,1720528807
96,ovalle,-30.5983,-71.2003,9.53,79,2,0.35,CL,1720528924
97,tura,25.5198,90.2201,25.04,98,36,2.58,IN,1720528471
98,greymouth,-42.4667,171.2,7.26,85,92,1.84,NZ,1720528926
99,hawaiian paradise park,19.5933,-154.9731,23.35,92,75,1.54,US,1720528413
100,waounde,15.2637,-12.8682,34.94,40,19,4.63,SN,1720528928
101,timbuktu,16.7735,-3.0074,37.39,30,100,3.89,ML,1720528929
102,wuhai,39.6647,106.8122,32.31,20,99,2.08,CN,1720528621
103,edinburgh of the seven seas,-37.0676,-12.3116,9.1,86,100,8.48,SH,1720528294
104,nicoya,10.1483,-85.452,25.57,94,16,1.03,CR,1720528933
105,chela,34.069,104.4619,16.05,78,100,0.44,CN,1720528934
106,sidney,-33.8679,151.2073,12.98,80,74,0.45,AU,1720528913
107,sechura,-5.5569,-80.8222,18.94,76,29,4.65,PE,1720528340
108,rakops,-21.0167,24.3333,20.96,6,0,2.22,BW,1720528937
109,puerto baquerizo moreno,-0.9,-89.6,21.22,90,90,4.41,EC,1720528408
110,chimore,-16.9833,-65.1333,11.29,80,100,0.37,BO,1720528940
111,muisne,0.6,-80.0333,24.7,90,100,4.58,EC,1720528941
112,olonkinbyen,70.9221,-8.7187,2.97,96,100,6.28,SJ,1720528468
113,motygino,58.1831,94.7592,20.87,62,88,2.21,RU,1720528943
114,port alfred,-33.5906,26.891,20.66,29,99,3.58,ZA,1720528944
115,taungoo,18.9333,96.4333,25.46,91,100,1.78,MM,1720528946
116,pavuluru,15.8529,80.1647,29.43,65,100,3.23,IN,1720528947
117,west end,26.6833,-78.9667,25.99,73,100,3.09,BS,1720528948
118,natal,-5.795,-35.2094,27.12,78,40,2.06,BR,1720528535
119,jaca,42.569,-0.5499,28.88,36,100,4.69,ES,1720528950
120,leava,-14.3,-178.1667,26.72,81,97,12.03,WF,1720528951
121,bikenibeu village,1.3673,173.1241,28.98,79,75,2.57,KI,1720528953
122,anadyr,64.75,177.4833,11.28,66,40,7.0,RU,1720528954
123,basmakci,37.8972,30.0117,35.95,26,75,5.63,TR,1720528955
124,alofi,-19.0595,-169.9187,21.94,53,100,8.23,NU,1720528539
125,new norfolk,-42.7826,147.0587,11.72,95,100,1.15,AU,1720528394
126,longyearbyen,78.2186,15.6401,4.91,81,75,6.69,SJ,1720528317
127,zaozersk,69.4005,32.4476,11.58,86,97,5.08,RU,1720528632
128,arraial do cabo,-22.9661,-42.0278,21.98,88,75,5.14,BR,1720528400
129,claveria,18.6074,121.0832,26.76,86,90,1.7,PH,1720528963
130,campo gallo,-26.5833,-62.85,7.41,60,5,2.16,AR,1720528964
131,portland,45.5234,-122.6762,21.22,77,20,1.54,US,1720528893
132,aldan,58.6031,125.3894,14.08,70,4,3.72,RU,1720528967
133,villa gesell,-37.2639,-56.973,3.48,61,100,3.62,AR,1720528970
134,dakhla,23.6848,-15.958,23.01,64,0,13.89,EH,1720528972
135,lamu,-2.2717,40.902,26.52,78,100,6.49,KE,1720528973
136,talnakh,69.4865,88.3972,21.63,49,39,5.69,RU,1720528402
137,winterset,41.3308,-94.0138,19.76,89,100,2.35,US,1720528976
138,howrah,22.5892,88.3103,33.0,66,40,6.17,IN,1720528680
139,sudislavl',57.8817,41.7083,27.36,46,100,3.58,RU,1720528978
140,altai,46.3722,96.2583,18.25,48,100,1.71,MN,1720528979
141,bure,10.7,37.0667,17.49,87,95,1.09,ET,1720528980
142,ajaigarh,24.9,80.2667,35.41,49,100,1.79,IN,1720528981
143,chui,-33.6971,-53.4616,8.07,80,97,4.66,UY,1720528983
144,belyy yar,53.6039,91.3903,24.94,57,40,7.0,RU,1720528984
145,tromso,69.6496,18.957,11.01,71,75,4.12,NO,1720528478
146,vilyuchinsk,52.9306,158.4028,11.15,99,100,1.25,RU,1720528986
147,konarka,19.9,86.1167,29.53,79,96,6.67,IN,1720528987
148,qaqortoq,60.7167,-46.0333,6.23,95,100,2.43,GL,1720528901
149,nemuro,43.3236,145.575,14.87,100,100,2.4,JP,1720528456
150,sittwe,20.15,92.9,28.47,81,100,3.53,MM,1720528991
151,salekhard,66.53,66.6019,25.35,41,10,1.26,RU,1720528992
152,carrizo springs,28.5219,-99.8606,26.34,83,40,1.54,US,1720528993
153,sungailiat,-1.85,106.1333,27.29,81,51,4.49,ID,1720528994
154,al jawf,29.5,38.75,39.31,11,0,2.67,SA,1720528510
155,maria la baja,9.9832,-75.3016,28.39,75,100,1.38,CO,1720528997
156,igarka,67.4667,86.5833,19.82,52,51,4.06,RU,1720528596
157,flying fish cove,-10.4217,105.6791,25.82,78,75,5.14,CX,1720528620
158,noumea,-22.2763,166.4572,22.78,99,13,5.23,NC,1720529000
159,inarajan village,13.2736,144.7484,28.54,91,98,6.21,GU,1720529180
160,akhaltsikhe,41.639,42.9826,18.28,95,100,2.09,GE,1720529182
161,wad medani,14.4012,33.5199,38.58,25,100,3.59,SD,1720529183
162,uturoa,-16.7333,-151.4333,25.34,81,79,3.86,PF,1720528739
163,alvand,36.3187,49.1678,23.32,38,8,4.5,IR,1720529185
164,acarau,-2.8856,-40.12,29.1,61,16,7.2,BR,1720529186
165,yerofey pavlovich,53.9667,121.9667,20.95,49,100,1.15,RU,1720529212
166,sesvete,45.8311,16.1164,32.77,49,20,3.09,HR,1720529213
167,bokovskaya,49.229,41.8306,35.19,15,100,5.36,RU,1720529214
168,dhidhdhoo,6.8833,73.1,28.81,79,100,4.87,MV,1720529215
169,durango,24.8333,-104.8333,19.95,54,3,0.63,MX,1720529216
170,ola,59.5833,151.2833,14.07,67,85,4.18,RU,1720529217
171,banjarmasin,-3.3244,114.591,25.08,95,100,0.54,ID,1720529219
172,east london,-33.0153,27.9116,22.52,18,0,7.2,ZA,1720529276
173,qarauyl,48.9451,79.255,21.72,61,97,5.76,KZ,1720529278
174,nuku'alofa,-21.1333,-175.2,21.19,83,75,6.17,TO,1720529279
175,outokumpu,62.7269,29.0159,18.94,87,100,4.63,FI,1720529280
176,blacksburg,37.2296,-80.4139,25.19,89,0,0.0,US,1720529307
177,lebu,-37.6167,-73.65,5.88,83,2,7.4,CL,1720529308
178,yakeshi,49.2833,120.7333,22.23,34,25,1.22,CN,1720529309
179,chibougamau,49.9168,-74.3659,17.79,94,100,3.6,CA,1720529310
180,mount isa,-20.7333,139.5,18.87,55,7,4.12,AU,1720529311
181,la'ie,21.6477,-157.9253,25.25,84,21,3.58,US,1720529313
182,dryden,49.7833,-92.7503,16.16,94,20,2.06,CA,1720529314
183,camarinas,43.1311,-9.1817,19.54,98,100,6.83,ES,1720529315
184,shache,38.4167,77.2406,32.98,18,10,1.63,CN,1720529318
185,reggane,26.7158,0.1714,46.78,4,0,0.59,DZ,1720529319
186,maracai,-22.6106,-50.6672,16.17,95,100,0.72,BR,1720529320
187,i-n-salah,27.1935,2.4607,47.1,4,0,6.66,DZ,1720529321
188,yuzhno-kurilsk,44.0306,145.8556,14.59,99,99,1.97,RU,1720529322
189,kalmunai,7.4167,81.8167,28.95,75,13,4.17,LK,1720529326
190,guerrero negro,27.9769,-114.0611,18.65,84,100,4.09,MX,1720529327
191,hithadhoo,-0.6,73.0833,28.94,71,71,2.66,MV,1720529328
192,frederico westphalen,-27.3592,-53.3944,6.52,85,98,2.5,BR,1720529330
193,taitung city,22.7583,121.1444,28.15,89,20,1.03,TW,1720529294
194,caleta de carquin,-11.0925,-77.6267,17.41,83,59,4.02,PE,1720529332
195,bodo,67.28,14.405,14.02,70,75,6.69,NO,1720529333
196,mata-utu,-13.2816,-176.1745,27.11,81,100,11.1,WF,1720529334
197,lospalos,-8.5186,127.0025,22.0,87,100,4.05,TL,1720529336
198,trujillo,-8.116,-79.03,16.98,88,100,2.57,PE,1720529337
199,kudahuvadhoo,2.6708,72.8944,29.13,70,100,3.19,MV,1720529338
200,nar'yan-mar,67.6713,53.087,27.15,50,3,3.31,RU,1720529339
201,keflavik,64.0049,-22.5624,11.95,87,75,7.2,IS,1720529340
202,shira,54.4911,89.9531,21.17,84,12,0.87,RU,1720529342
203,robbah,33.2797,6.9098,43.8,6,0,1.78,DZ,1720529343
204,lecheng,25.1238,113.3254,26.22,91,100,0.51,CN,1720529344
205,gornopravdinsk,60.05,69.9,26.24,45,29,2.62,RU,1720529345
206,kupino,54.3663,77.2981,21.75,54,30,2.65,RU,1720529346
207,la passe,45.5549,-0.8967,26.13,76,97,4.89,FR,1720529348
208,jamtara,23.95,86.8,34.04,49,95,4.5,IN,1720529349
209,moroni,-11.7022,43.2551,25.85,76,11,5.91,KM,1720529352
210,kodiak,57.79,-152.4072,9.73,93,75,2.06,US,1720529353
211,malango,-2.9627,119.9001,18.81,100,100,0.87,ID,1720529354
212,villa ocampo,-28.4875,-59.3551,5.35,60,100,4.48,AR,1720529356
213,saint-denis,48.9167,2.3333,25.69,63,75,6.69,FR,1720529357
214,merizo village,13.2658,144.6691,28.31,91,98,6.1,GU,1720529358
215,walvis bay,-22.9575,14.5053,24.53,23,0,5.66,NA,1720529359
216,mahina,-17.5065,-149.489,22.87,83,0,1.54,PF,1720529360
217,arteche,12.2645,125.4048,26.86,84,100,1.69,PH,1720529362
218,wahpeton,46.2652,-96.6059,20.4,100,0,1.54,US,1720529363
219,ende,-8.8432,121.6623,22.86,94,88,1.31,ID,1720529364
220,luderitz,-26.6481,15.1594,17.71,42,0,4.59,NA,1720529365
221,san antonio de pale,-1.4014,5.6325,22.84,78,100,4.7,GQ,1720529366
222,playas,-2.6333,-80.3833,22.93,81,94,2.11,EC,1720529367
223,atafu village,-8.5421,-172.5159,28.36,74,100,5.36,TK,1720529369
224,punta arenas,-53.15,-70.9167,3.06,81,75,3.09,CL,1720529370
225,anna regina,7.2644,-58.5077,27.37,82,40,2.37,GY,1720529371
226,shubarshi,48.5872,57.1869,33.71,24,90,6.48,KZ,1720529372
227,caidian,30.5833,114.0333,28.07,95,100,3.76,CN,1720529373
228,sinabang,2.4803,96.3801,27.18,82,100,1.31,ID,1720529375
229,badger,64.8,-147.5333,11.14,93,100,2.57,US,1720529376
230,gargalianoi,37.0667,21.6333,34.64,49,22,3.04,GR,1720529377
231,iskateley,67.6803,53.1512,27.1,50,5,3.36,RU,1720529378
232,kyzyl-mazhalyk,51.1333,90.6,18.5,83,99,0.55,RU,1720529379
233,kavieng,-2.5744,150.7967,27.9,79,93,3.09,PG,1720529380
234,nalut,30.3333,10.85,41.2,9,0,2.79,LY,1720529382
235,arish,31.1316,33.7984,30.31,56,0,5.66,EG,1720529383
236,waddan,29.1614,16.139,39.6,14,0,5.57,LY,1720529384
237,rongelap,11.1635,166.8941,28.48,78,3,7.12,MH,1720529385
238,lindale,32.5157,-95.4094,20.59,94,0,2.57,US,1720529386
239,paracuru,-3.41,-39.0306,28.95,65,9,5.92,BR,1720529388
240,qamdo,31.1667,97.2333,11.97,83,100,3.19,CN,1720529389
241,nahrin,36.0649,69.1334,32.44,22,1,5.28,AF,1720529390
242,jiayuguan,39.8167,98.3,30.27,19,100,2.5,CN,1720529391
243,hunkuyi,11.2668,7.6512,31.95,42,57,2.45,NG,1720529392
244,jiaojiang,28.6803,121.4428,25.3,95,99,2.05,CN,1720529394
245,cidreira,-30.1811,-50.2056,8.79,67,74,3.37,BR,1720529395
246,balaipungut,1.05,101.2833,24.89,95,77,0.67,ID,1720529396
247,sisimiut,66.9395,-53.6735,4.04,85,100,1.58,GL,1720529397
248,san luis de la loma,17.2706,-100.8939,25.35,88,100,1.9,MX,1720529398
249,olyokminsk,60.3736,120.4264,20.14,61,36,2.03,RU,1720529399
250,tsiombe,-25.3,45.4833,26.33,38,0,4.93,MG,1720529401
251,kathu,7.9178,98.3332,27.9,79,100,3.55,TH,1720529402
252,iskitim,54.6366,83.3045,18.68,71,61,3.1,RU,1720529403
253,klyuchi,52.2667,79.1667,22.24,56,61,4.93,RU,1720529404
254,utrik,11.2278,169.8474,27.97,80,2,7.33,MH,1720529405
255,el calafate,-50.3408,-72.2768,-0.29,63,94,2.22,AR,1720529407
256,sunne,59.8376,13.143,20.23,34,100,4.14,SE,1720529408
257,urengoy,65.9667,78.3667,21.66,44,0,6.69,RU,1720529409
258,kapa'a,22.0752,-159.319,24.18,92,100,5.66,US,1720529410
259,inhambane,-23.865,35.3833,23.99,41,0,3.6,MZ,1720529411
260,pacific grove,36.6177,-121.9166,13.82,95,100,1.79,US,1720529160
261,happy valley-goose bay,53.3168,-60.3315,21.17,73,75,3.09,CA,1720529415
262,castillos,-34.1667,-53.8333,7.35,78,100,4.69,UY,1720529416
263,vila velha,-20.3297,-40.2925,25.53,80,20,0.89,BR,1720529417
264,trindade,-16.6494,-49.4889,19.86,33,7,0.94,BR,1720529419
265,remire-montjoly,4.9167,-52.2667,28.02,89,75,1.03,GF,1720529355
266,huanren,41.2647,125.3667,19.85,93,37,1.09,CN,1720529421
267,weno,7.4515,151.8468,26.97,89,100,0.0,FM,1720529422
268,shortandy,51.7006,70.9994,21.15,60,86,3.88,KZ,1720529423
269,lazaro cardenas,17.9583,-102.2,25.84,89,100,1.69,MX,1720529424
270,codrington,-38.2667,141.9667,8.95,83,0,1.86,AU,1720529426
271,princeville,45.7668,-61.2985,22.65,95,100,1.54,CA,1720529427
272,patterson,37.4716,-121.1297,21.1,77,0,1.88,US,1720529228
273,fort st. john,56.2499,-120.8529,16.94,59,20,2.57,CA,1720529429
274,constitucion,-35.3333,-72.4167,4.19,81,0,2.09,CL,1720529430
275,luanda,-8.8368,13.2343,23.24,68,10,5.03,AO,1720528936
276,okakarara,-20.5833,17.4333,23.27,9,0,3.91,NA,1720529433
277,nizhniy kuranakh,58.8353,125.4869,14.71,79,9,2.02,RU,1720529434
278,sitka,57.0531,-135.33,12.94,82,100,4.63,US,1720529435
279,howard springs,-12.497,131.047,24.95,90,17,1.5,AU,1720529436
280,smithers,54.7804,-127.1743,11.18,76,0,0.0,CA,1720529437
281,shakawe,-18.3667,21.85,25.38,8,0,2.89,BW,1720529438
282,margate,51.3813,1.3862,19.37,86,100,0.45,GB,1720529440
283,vyazemskiy,47.5378,134.7525,11.12,97,7,0.76,RU,1720529441
284,mtsensk,53.2766,36.5733,28.72,61,86,1.45,RU,1720529428
285,tibati,6.4667,12.6333,26.64,72,100,0.94,CM,1720529443
286,quesnel,52.9999,-122.5029,10.28,93,0,0.0,CA,1720529202
287,qui nhon,13.7667,109.2333,26.81,87,100,0.89,VN,1720529445
288,mount pearl,47.5166,-52.7813,24.14,71,100,5.14,CA,1720529166
289,baijiantan,45.6333,85.1833,32.19,26,56,6.34,CN,1720529448
290,wanning,18.8003,110.3967,28.29,82,44,3.72,CN,1720529449
291,tindouf,27.6711,-8.1474,38.25,15,0,2.06,DZ,1720529450
292,carbonear,47.7332,-53.2148,24.86,82,100,3.8,CA,1720529451
293,ko pha ngan,9.7578,100.0291,28.38,71,100,1.44,TH,1720529454
294,okha,53.5739,142.9478,9.3,98,100,6.14,RU,1720529455
295,kuloy,61.0305,42.4925,20.66,88,100,4.33,RU,1720529456
296,humaita,-7.5061,-63.0208,28.16,49,0,1.54,BR,1720529457
297,tupancireta,-29.0806,-53.8358,3.86,72,100,5.61,BR,1720529459
298,alice springs,-23.7,133.8833,11.75,71,5,2.06,AU,1720529460
299,putla villa de guerrero,17.0333,-97.9333,21.35,96,100,0.47,MX,1720529461
300,abbeville,50.1,1.8333,18.61,86,100,2.88,FR,1720529462
301,sosnovo-ozerskoye,52.5249,111.5418,23.16,43,35,2.84,RU,1720529463
302,nafplio,37.5683,22.8053,36.92,25,0,8.14,GR,1720529465
303,nuuk,64.1835,-51.7216,6.34,87,75,1.03,GL,1720529223
304,gebeit,21.0667,36.3167,39.54,11,37,6.03,SD,1720529467
305,brisas de zicatela,15.8369,-97.0419,25.26,87,100,0.7,MX,1720529468
306,sosnogorsk,63.6023,53.8817,29.9,28,0,2.77,RU,1720529469
307,asipovichy,53.2933,28.6422,25.83,43,0,3.94,BY,1720529470
308,rantepao,-2.9701,119.8978,18.81,100,100,0.87,ID,1720529472
309,bor,56.3567,44.0669,29.96,38,1,2.63,RU,1720529473
310,gatton,-27.55,152.2833,16.47,90,62,1.67,AU,1720529474
311,neiafu,-18.65,-173.9833,23.38,68,40,7.2,TO,1720529475
312,loikaw,19.6742,97.2094,21.98,92,100,2.05,MM,1720529476
313,haimen,23.1935,116.6142,30.94,81,2,1.54,CN,1720529478
314,heunghae,36.1125,129.3522,22.49,99,100,1.45,KR,1720529479
315,salina cruz,16.1667,-95.2,24.57,93,100,2.38,MX,1720529480
316,lata,40.1629,-8.3327,22.82,60,100,3.81,PT,1720529481
317,ko lanta,7.5336,99.0865,27.75,78,100,3.65,TH,1720529482
318,long jetty,-33.3667,151.4833,12.75,92,0,2.24,AU,1720529484
319,nedroma,35.0136,-1.748,30.64,49,0,4.38,DZ,1720529486
320,didwana,27.4,74.5667,37.7,37,42,3.74,IN,1720529487
321,ballycastle,55.2044,-6.243,17.52,64,100,7.3,GB,1720529489
322,westport,41.1415,-73.3579,27.01,89,100,2.57,US,1720529202
323,taulaga,-11.0553,-171.0883,28.15,72,87,6.22,AS,1720529492
324,lake jackson,29.0339,-95.4344,28.31,92,34,1.74,US,1720529493
325,puerto lempira,15.2667,-83.7667,27.35,86,100,4.56,HN,1720529494
326,valparaiso,-33.0393,-71.6273,6.75,93,0,2.06,CL,1720529446
327,ayr,55.4627,-4.6339,16.99,55,20,8.23,GB,1720529496
328,virginia,37.5481,-77.4467,28.58,86,75,2.06,US,1720529498
329,touros,-5.1989,-35.4608,28.07,67,75,5.67,BR,1720529499
330,camacupa,-12.0167,17.4833,28.74,11,10,1.39,AO,1720529500
331,cabo san lucas,22.8909,-109.9124,27.61,75,0,5.0,MX,1720528884
332,aras-asan,8.8908,126.3033,26.55,85,100,1.09,PH,1720529502
333,santa isabel,-23.3156,-46.2214,14.61,80,87,0.68,BR,1720529503
334,aral,40.5156,81.2636,33.77,18,1,4.33,CN,1720529505
335,mozarlandia,-14.7447,-50.5706,30.57,28,0,0.71,BR,1720529506
336,kenora,49.8167,-94.4337,18.54,77,20,3.09,CA,1720529430
337,taoudenni,22.6783,-3.9836,45.02,12,0,3.31,ML,1720529508
338,tondano,1.3038,124.9112,19.09,98,100,0.13,ID,1720529509
339,saldanha,-33.0117,17.9442,13.03,84,100,11.4,ZA,1720529511
340,antalaha,-14.9003,50.2788,24.8,58,35,6.6,MG,1720529512
341,dompu,-8.5356,118.4622,24.21,91,94,1.41,ID,1720529514
342,acajutla,13.5928,-89.8275,27.21,78,100,1.34,SV,1720529515
343,uyuni,-20.4597,-66.825,0.83,31,0,9.02,BO,1720529516
344,yeraliyev,43.2,51.65,35.56,27,1,6.77,KZ,1720529518
345,coahuayana de hidalgo,18.7,-103.6583,25.16,96,95,1.15,MX,1720529519
346,narasannapeta,18.4167,84.05,28.3,78,31,5.66,IN,1720529520
347,talachyn,54.4097,29.6917,22.76,58,0,4.65,BY,1720529521
348,polyarnyy,69.1989,33.4478,9.83,96,100,4.4,RU,1720529522
349,lappeenranta,61.0587,28.1887,18.21,67,75,5.66,FI,1720529524
350,bhainsdehi,21.6467,77.6325,26.94,77,100,3.37,IN,1720529525
351,carauari,-4.8828,-66.8958,25.98,81,6,0.34,BR,1720529526
352,holualoa,19.6228,-155.9522,23.91,89,100,0.0,US,1720529527
353,selfoss,63.9331,-20.9971,12.06,79,99,4.47,IS,1720529528
354,mar del plata,-38.0023,-57.5575,6.16,59,93,1.79,AR,1720529530
355,villa ojo de agua,-29.5,-63.6938,2.92,67,5,4.5,AR,1720529531
356,trairi,-3.2778,-39.2689,28.58,63,64,5.61,BR,1720529532
357,coquimbo,-29.9533,-71.3436,8.85,93,100,2.06,CL,1720529533
358,newman,37.3138,-121.0208,22.38,77,0,1.94,US,1720529534
359,smara,26.7384,-11.6719,31.27,21,0,9.68,EH,1720529535
360,as sulayyil,20.4607,45.5779,44.14,7,95,5.57,SA,1720529537
361,vadso,70.0744,29.7487,16.49,62,0,5.66,NO,1720529538
362,marand,38.4329,45.7749,31.17,27,4,6.87,IR,1720529539
363,fengrun,39.8333,118.1167,23.73,52,1,1.7,CN,1720529540
364,rio grande,-32.035,-52.0986,4.97,83,100,5.18,BR,1720529541
365,canico,32.6333,-16.85,25.4,77,40,4.12,PT,1720529543
366,machico,32.7,-16.7667,25.4,75,40,4.12,PT,1720529545
367,puerto leguizamo,-0.1934,-74.7819,23.23,88,100,0.78,CO,1720529546
368,tangalle,6.024,80.7911,32.09,74,10,6.35,LK,1720529547
369,okanagan,50.3639,-119.35,18.4,57,11,0.56,CA,1720529548
370,alotau,-10.3069,150.4462,23.38,96,100,1.45,PG,1720529551
371,acapulco de juarez,16.8634,-99.8901,26.9,83,100,0.0,MX,1720529552
372,zyryanovsk,49.7386,84.2719,19.86,87,100,0.23,KZ,1720529553
373,velikiy ustyug,60.7644,46.3106,29.37,37,12,2.43,RU,1720529554
374,minas de matahambre,22.5887,-83.9447,26.98,76,100,2.88,CU,1720529555
375,taltal,-25.4,-70.4833,13.87,70,0,2.38,CL,1720529557
376,guayaramerin,-10.8368,-65.3614,16.03,59,0,5.14,BO,1720529558
377,bac lieu,9.285,105.7244,28.58,76,44,3.33,VN,1720529559
378,mikuni,36.2171,136.1519,23.95,96,100,4.09,JP,1720529560
379,filey,54.21,-0.2892,14.88,93,100,4.47,GB,1720529561
380,al bardiyah,31.7561,25.0865,31.91,44,0,8.05,LY,1720529563
381,haiku-pauwela,20.9219,-156.3051,22.92,79,40,3.58,US,1720529564
382,bechar,31.6167,-2.2167,42.18,5,0,7.72,DZ,1720529565
383,richards bay,-28.783,32.0377,23.79,14,0,5.29,ZA,1720529566
384,scalea,39.813,15.7956,25.29,70,3,0.72,IT,1720529567
385,atbasar,51.8,68.3333,22.69,52,9,4.75,KZ,1720529569
386,puerto gaitan,4.3133,-72.0816,24.95,85,96,1.84,CO,1720529570
387,tchibanga,-2.85,11.0333,32.28,39,78,1.46,GA,1720529571
388,nangomba,-10.9,38.5,31.44,18,100,2.99,TZ,1720529572
389,borogontsy,62.6683,131.1683,18.1,66,100,2.98,RU,1720529573
390,zamosc,50.7231,23.252,29.0,47,49,4.24,PL,1720529574
391,geraldton,-28.7667,114.6,19.23,94,75,8.75,AU,1720529576
392,desaguadero,-16.5656,-69.0417,4.53,22,0,1.52,PE,1720529577
393,arawa,-6.2132,155.5367,24.81,89,45,1.78,PG,1720529578
394,port saint john's,-31.6229,29.5448,23.8,21,33,1.07,ZA,1720529579
395,ayacucho,-13.1583,-74.2239,9.92,53,40,2.06,PE,1720529580
396,labuan bajo,-8.4964,119.8877,25.99,83,62,2.01,ID,1720529582
397,tambura,5.6,27.4667,30.83,47,100,2.38,SS,1720529583
398,cockburn town,21.4612,-71.1419,28.22,81,0,7.16,TC,1720529406
399,yuxia,34.0615,108.6291,25.34,95,100,0.75,CN,1720529585
400,beyneu,45.3167,55.2,37.42,17,5,1.2,KZ,1720529586
401,saint-francois,46.4154,3.9054,31.69,42,100,5.66,FR,1720529587
402,itoman,26.1247,127.6694,28.43,94,40,3.09,JP,1720530122
403,troitsko-pechorsk,62.7084,56.1964,26.12,53,97,0.4,RU,1720530123
404,navalmoral de la mata,39.8916,-5.5406,31.09,17,65,5.27,ES,1720530124
405,anyang,36.0994,114.3289,27.68,55,80,2.96,CN,1720530125
406,kodinsk,58.6881,99.1844,23.69,61,24,1.54,RU,1720530128
407,quepos,9.4236,-84.1652,27.35,81,89,0.49,CR,1720530129
408,itaituba,-4.2761,-55.9836,28.09,78,75,1.54,BR,1720530130
409,ad dilam,23.9915,47.1627,45.23,7,20,7.15,SA,1720530131
410,bhamo,24.2667,97.2333,24.82,97,100,0.87,MM,1720530132
411,kegeyli shahar,42.7767,59.6078,36.05,23,0,6.87,UZ,1720530134
412,al ain city,24.1917,55.7606,46.79,13,0,3.6,AE,1720530135
413,puerto colombia,10.9878,-74.9547,28.05,76,100,2.9,CO,1720530136
414,bunia,1.5667,30.25,27.79,44,100,1.05,CD,1720530137
415,tocopilla,-22.092,-70.1979,17.62,57,0,4.14,CL,1720530138
416,bengkulu,-3.8004,102.2655,26.51,84,7,2.99,ID,1720530140
417,sanchazi,42.0817,126.6003,16.51,95,17,1.83,CN,1720530141
418,saint-philippe,-21.3585,55.7679,22.77,68,1,4.33,RE,1720530142
419,minas de marcona,-15.2119,-75.1103,9.93,86,69,6.72,PE,1720530143
420,slave lake,55.2834,-114.769,13.99,94,0,1.03,CA,1720530145
421,altamira,-3.2033,-52.2064,27.05,83,0,1.03,BR,1720530146
422,nikolayevsk-on-amure,53.1406,140.73,10.68,99,100,1.33,RU,1720530149
423,araguaina,-7.1911,-48.2072,32.3,32,7,2.67,BR,1720530097
424,chul'man,56.8479,124.9104,15.06,65,3,1.64,RU,1720530151
425,san carlos,9.6612,-68.5827,25.48,86,18,1.57,VE,1720530152
426,tannum sands,-23.9504,151.3693,18.94,94,75,2.06,AU,1720530153
427,la ronge,55.1001,-105.2842,15.14,88,0,0.51,CA,1720530154
428,tibu,8.639,-72.7358,25.33,90,100,0.16,CO,1720530157
429,saint john,45.2727,-66.0677,18.57,100,100,4.63,CA,1720530006
430,ust'-ilimsk,58.0006,102.6619,23.81,55,93,0.31,RU,1720530159
431,mwinilunga,-11.7358,24.4293,27.9,10,2,3.68,ZM,1720530160
432,kavaratti,10.5669,72.642,27.52,84,100,8.32,IN,1720530161
433,forster,-32.1667,152.5167,11.32,100,55,3.71,AU,1720530163
434,hovd,48.0056,91.6419,22.05,41,75,4.44,MN,1720530164
435,burayevo,55.8407,55.4083,26.93,58,6,4.13,RU,1720530165
436,bani walid,31.7566,13.9942,40.53,11,0,3.1,LY,1720530166
437,abashiri,44.0213,144.2697,15.33,98,100,2.0,JP,1720530167
438,broome,42.2506,-75.833,26.0,85,0,3.09,US,1720530168
439,choele choel,-39.2667,-65.6833,2.02,88,13,3.26,AR,1720530170
440,demirci,39.0461,28.6589,33.32,25,44,9.34,TR,1720530171
441,ihsaniye,40.6909,29.8347,35.24,44,0,7.82,TR,1720530173
442,guanambi,-14.2233,-42.7814,28.53,33,0,4.37,BR,1720530174
443,mountain home,43.133,-115.6912,20.01,38,0,1.79,US,1720530133
444,huarmey,-10.0681,-78.1522,18.06,83,60,3.37,PE,1720530177
445,khovd,48.0056,91.6419,22.05,41,75,4.44,MN,1720530178
446,vila franca do campo,37.7167,-25.4333,22.23,78,26,6.63,PT,1720530179
447,macapa,0.0389,-51.0664,29.99,74,40,1.03,BR,1720529995
448,severomorsk,69.0689,33.4162,17.22,95,100,4.01,RU,1720530181
449,belmonte,-15.8631,-38.8828,26.39,67,34,3.45,BR,1720530183
450,palmas,-10.2128,-48.3603,25.93,65,0,2.06,BR,1720530184
451,bel ombre,-4.6167,55.4167,25.84,75,100,7.31,SC,1720530185
452,hadibu,12.65,54.0333,28.84,66,89,9.4,YE,1720530186
453,kasungu,-13.0333,33.4833,28.81,10,78,2.1,MW,1720530187
454,okhotsk,59.3833,143.3,12.64,87,100,5.18,RU,1720530189
455,saint-joseph,-21.3667,55.6167,22.21,66,0,4.84,RE,1720530190
456,jeju city,33.5097,126.5219,28.96,65,0,2.57,KR,1720529959
457,lae,-6.7221,146.9847,23.48,78,100,2.37,PG,1720530192
458,chechelnyk,48.2127,29.3599,34.29,20,6,5.69,UA,1720530193
459,tralee,52.2704,-9.7026,16.14,82,100,4.12,IE,1720530194
460,puerto el triunfo,13.2833,-88.55,26.64,86,100,1.67,SV,1720530196
461,sofifi,0.7349,127.576,26.21,83,100,0.79,ID,1720530197
462,silkeborg,56.1697,9.5451,17.18,93,100,3.29,DK,1720530199
463,carutapera,-1.195,-46.02,28.36,72,6,2.67,BR,1720530200
464,bachatskiy,54.2927,86.1285,15.99,89,97,2.66,RU,1720530202
465,kencong,-8.2833,113.3667,24.13,91,57,0.99,ID,1720530203
466,newry,54.1784,-6.3374,14.5,96,100,7.01,GB,1720530204
467,la ligua,-32.4524,-71.2311,9.11,81,0,0.36,CL,1720530205
468,oranjemund,-28.55,16.4333,15.09,47,5,2.67,NA,1720530206
469,eyl,7.9803,49.8164,31.43,56,92,12.67,SO,1720530209
470,hami,42.8,93.45,35.93,13,0,5.63,CN,1720530210
471,springbok,-29.6643,17.8865,12.77,27,69,6.81,ZA,1720530211
472,nago,26.5881,127.9761,30.08,88,21,2.58,JP,1720530212
473,freetown,8.484,-13.2299,27.84,78,75,2.57,SL,1720530213
474,greenville,35.6127,-77.3663,28.96,91,75,3.09,US,1720530215
475,sorong,-0.8833,131.25,26.57,83,100,1.92,ID,1720530216
476,vennesla,58.2694,7.9741,17.08,54,20,4.63,NO,1720530217
477,freeport,40.6576,-73.5832,28.42,84,100,2.06,US,1720530218
478,bereeda,11.8704,51.0579,32.72,54,72,1.32,SO,1720530219
479,torghay,49.6339,63.4981,32.57,24,24,4.99,KZ,1720530221
480,suva,-18.1416,178.4415,23.71,73,75,4.63,FJ,1720530222
481,pahrump,36.2083,-115.9839,27.03,12,0,1.08,US,1720530224
482,hameenlinna,60.996,24.4643,20.82,45,76,3.8,FI,1720530225
483,patacamaya,-17.2333,-67.9167,7.41,14,0,4.88,BO,1720530226
484,cacheu,12.2706,-16.1658,30.05,63,100,1.44,GW,1720530228
485,tianchang,37.9981,114.0156,25.66,60,19,1.48,CN,1720530230
486,spencer,43.1414,-95.1444,21.02,85,0,0.0,US,1720530231
487,mahdia,35.5047,11.0622,36.46,29,4,5.79,TN,1720530232
488,juba,4.8517,31.5825,32.7,41,98,0.81,SS,1720530032
489,saint-pierre,-21.3393,55.4781,22.82,60,0,6.69,RE,1720530235
490,kununurra,-15.7667,128.7333,22.99,68,36,1.54,AU,1720530236
491,abha,18.2164,42.5053,29.9,57,40,3.09,SA,1720530237
492,tuba city,36.135,-111.2399,22.81,15,0,1.36,US,1720530238
493,cole harbour,44.6724,-63.4751,21.22,96,100,1.54,CA,1720530239
494,yulinshi,38.2906,109.7494,27.51,45,88,6.15,CN,1720530241
495,abepura,-2.6333,140.5833,28.45,65,20,4.63,ID,1720530242
496,torrington,41.8007,-73.1212,26.46,88,100,2.98,US,1720530243
497,geneina,13.45,22.45,36.16,25,12,3.93,SD,1720530244
498,st johnsbury,44.4253,-72.0151,25.39,84,0,1.54,US,1720530245
499,turkmenbasy,40.0222,52.9552,39.43,17,0,5.14,TM,1720530246
500,east ballina,-28.8667,153.5833,16.56,87,54,1.92,AU,1720530248
501,jayapura,-2.5333,140.7,28.66,85,17,1.7,ID,1720530250
502,korla,41.7597,86.1469,33.02,19,0,5.06,CN,1720530251
503,kaoma,-14.7833,24.8,29.44,7,5,2.86,ZM,1720530252
504,kingston,17.997,-76.7936,28.53,74,20,2.57,JM,1720530253
505,sur,22.5667,59.5289,31.77,57,100,3.11,OM,1720530255
506,laghouat,33.8,2.8651,42.4,6,6,7.14,DZ,1720530256
507,piti village,13.4626,144.6933,27.95,89,20,4.12,GU,1720530257
508,ancud,-41.8697,-73.8203,3.15,88,1,3.35,CL,1720530258
509,yangquan,37.8575,113.5633,23.55,65,3,0.83,CN,1720530026
510,vilhena,-12.7406,-60.1458,16.12,72,0,5.14,BR,1720530261
511,barra de santo antonio,-9.4047,-35.5072,24.6,78,0,3.26,BR,1720530262
512,mazagao,-0.115,-51.2894,31.03,65,0,0.96,BR,1720530263
513,vernon,50.2581,-119.2691,20.72,56,11,4.12,CA,1720530264
514,angaur state,6.906,134.13,27.35,81,100,1.37,PW,1720530265
515,urangan,-25.3,152.9,19.08,83,18,2.0,AU,1720530162
516,maintirano,-18.0667,44.0167,24.79,66,0,6.37,MG,1720530268
517,whakatane,-37.9585,176.9854,6.54,99,0,0.89,NZ,1720530269
518,suining,30.508,105.5733,24.81,96,100,2.37,CN,1720530270
519,port shepstone,-30.7414,30.455,20.06,36,0,7.73,ZA,1720530271
520,siwa oasis,29.2041,25.5195,38.84,20,0,4.28,EG,1720530272
521,culebra,18.303,-65.301,31.39,79,94,5.36,PR,1720530274
522,bahia honda,22.9036,-83.1592,26.66,78,100,3.82,CU,1720530276
523,tamanrasset,22.785,5.5228,36.95,9,20,5.14,DZ,1720530277
524,yenangyaung,20.4667,94.8833,30.16,61,100,6.01,MM,1720530278
525,bodaybo,57.8506,114.1933,24.68,70,12,0.43,RU,1720530280
526,mossel bay,-34.1831,22.146,12.96,57,100,11.26,ZA,1720530281
527,arendal,58.4615,8.7725,16.89,56,88,4.71,NO,1720530282
528,aplahoue,6.9333,1.6833,27.13,76,100,3.35,BJ,1720530284
529,kimbe,-5.5502,150.1429,24.43,90,49,2.86,PG,1720530286
530,bandon,51.7469,-8.7425,16.77,93,100,6.28,IE,1720530287
531,rio tinto,41.1826,-8.5581,20.2,95,75,5.81,PT,1720530288
532,gopalpur,19.2667,84.9167,28.88,80,30,8.55,IN,1720530289
533,dauphin,51.1494,-100.0502,17.08,94,40,2.06,CA,1720530290
534,tadine,-21.55,167.8833,22.09,75,90,7.65,NC,1720530291
535,uzgen,40.7699,73.3007,31.16,19,0,4.33,KG,1720530293
536,esmeraldas,-19.7625,-44.3139,24.48,38,4,2.62,BR,1720530294
537,altavilla vicentina,45.5155,11.4587,34.1,49,8,1.67,IT,1720530295
538,jieyang,23.5289,116.3642,30.96,84,10,1.76,CN,1720530013
539,mathba,22.2855,89.9629,28.54,81,100,3.43,BD,1720530297
540,tvoroyri,61.5556,-6.8111,10.29,83,21,1.84,FO,1720530299
541,mogocha,53.7333,119.7667,20.75,63,44,2.07,RU,1720530300
542,fortuna,40.5982,-124.1573,14.4,95,100,0.0,US,1720530220
543,carnarvon,-24.8667,113.6333,22.23,82,88,6.15,AU,1720530302
544,jaicos,-7.3592,-41.1378,31.17,31,4,3.28,BR,1720530303
545,astrakhan,46.3497,48.0408,35.93,23,0,4.0,RU,1720530304
546,fuerte olimpo,-21.0415,-57.8738,9.96,93,100,2.53,PY,1720530306
547,hirara,24.8,125.2833,29.65,77,20,5.58,JP,1720530307
548,helena valley southeast,46.6153,-111.9216,16.84,61,43,1.24,US,1720530308
549,gamay,12.3854,125.2979,25.77,90,97,1.43,PH,1720530309
550,nouadhibou,20.931,-17.0347,27.99,42,0,10.8,MR,1720530310
551,linxia chengguanzhen,35.6003,103.2064,18.83,59,3,2.78,CN,1720530312
552,nosy varika,-20.5833,48.5333,23.12,68,0,3.32,MG,1720530313
553,koltushi,59.9297,30.6447,22.6,58,30,3.76,RU,1720530314
554,zag,46.9441,99.165,20.15,44,76,7.3,MN,1720530315
555,monrovia,6.3005,-10.7969,27.87,78,25,3.68,LR,1720530316
556,erdenet,49.0333,104.0833,14.44,96,100,3.28,MN,1720530317
557,sola,-13.8833,167.55,26.14,81,75,11.35,VU,1720530319
558,boke,10.9409,-14.2967,30.81,63,71,1.66,GN,1720530320
